[
  {
    "id": "32eebdae-b5a0-4079-b207-3f5c4733f0e9",
    "userId": "chiragrajus2002@gmail.com",
    "description": "sasasa",
    "image": "1699513334838.jpg",
    "latitude": "12.9377776",
    "longitude": "77.6886294",
    "city": "Bengaluru",
    "state": "Karnataka",
    "suburb": "Bellanduru",
    "display_name": "Aptos, Kariyammana Agrahara Road, Kariyammana Agrahara, Bellanduru, Mahadevapura Zone, Bengaluru, Bangalore East, Bengaluru Urban District, Karnataka, 560103, India",
    "postcode": "560103",
    "status": "resolved",
    "createdDate": "Thu Nov 09 2023"
  },
  {
    "id": "63410f92-5f18-4ddb-882a-7cd965da1e1b",
    "userId": "KashyapSiddhant01@gmail.com",
    "description": "food problome",
    "image": "1699606756045.jpg",
    "latitude": "12.9377776",
    "longitude": "77.6886294",
    "city": "Bengaluru",
    "state": "Karnataka",
    "suburb": "Bellanduru",
    "display_name": "Sunny Brooks, Bellanduru, Mahadevapura Zone, Bengaluru, Bangalore East, Bengaluru Urban District, Karnataka, 560035, India",
    "postcode": "560035",
    "status": "resolved",
    "createdDate": "Fri Nov 10 2023"
  },
  {
    "id": "dca1aeae-3c8a-4e46-aba4-90e9bc59ac2f",
    "userId": "chis19is@cmrit.ac.in",
    "description": "broken pipeline",
    "image": "1699783279716.jpg",
    "latitude": "12.9564672",
    "longitude": "77.594624",
    "city": "Bengaluru",
    "state": "Karnataka",
    "suburb": "Shanti Nagar",
    "display_name": "Shanti Nagar, Shanthi Nagar, East Zone, Bengaluru, Bangalore North, Bengaluru Urban District, Karnataka, 560027, India",
    "postcode": "560027",
    "status": "resolved",
    "createdDate": "Sun Nov 12 2023"
  },
  {
    "id": "8ae8a7cc-3de6-46c0-b938-1faf55d846c5",
    "userId": "chiragrajus2002@gmail.com",
    "description": "school problem",
    "image": "1699941727331.jpg",
    "latitude": "12.9226935",
    "longitude": "77.6796418",
    "city": "Bengaluru",
    "state": "Karnataka",
    "suburb": "Bellanduru",
    "display_name": "British Telecom, Survey No.51-64, Pritech Internal Road, RMZ Ecospace, Bellanduru, Mahadevapura Zone, Bengaluru, Bangalore East, Bengaluru Urban District, Karnataka, 560103, India",
    "postcode": "560103",
    "status": "resolved",
    "createdDate": "Tue Nov 14 2023"
  },
  {
    "id": "1a97968b-8c96-4a88-a7ab-c3ae1d60f71e",
    "userId": "sachinmishra83742@gmail.com",
    "description": "drainage problem near 7th cross road",
    "image": "1699951371919.png",
    "latitude": "12.9358253",
    "longitude": "77.6879585",
    "city": "Bengaluru",
    "state": "Karnataka",
    "suburb": "Bellanduru",
    "display_name": "Kariyammana Agrahara, Bellanduru, Mahadevapura Zone, Bengaluru, Bangalore East, Bengaluru Urban District, Karnataka, 560103, India",
    "postcode": "560103",
    "status": "resolved",
    "createdDate": "Tue Nov 14 2023"
  },
  {
    "id": "35174890-27ee-420f-88b0-7d5fc521133a",
    "userId": "adityapratap620@gmail.com",
    "description": "in background unable to read sms",
    "image": "1699956663143.jpg",
    "latitude": "12.9358253",
    "longitude": "77.6879585",
    "city": "Bengaluru",
    "state": "Karnataka",
    "suburb": "Bellanduru",
    "display_name": "Kariyammana Agrahara, Bellanduru, Mahadevapura Zone, Bengaluru, Bangalore East, Bengaluru Urban District, Karnataka, 560103, India",
    "postcode": "560103",
    "status": "resolved",
    "createdDate": "Tue Nov 14 2023"
  },
  {
    "id": "a8e1b009-324a-44a6-bba7-054950446a4c",
    "userId": "chiragrajus2102@gmail.com",
    "description": "multiple images",
    "image": "1699956663564.jpg",
    "latitude": "12.9358253",
    "longitude": "77.6879585",
    "city": "Bengaluru",
    "state": "Karnataka",
    "suburb": "Bellanduru",
    "display_name": "Kariyammana Agrahara, Bellanduru, Mahadevapura Zone, Bengaluru, Bangalore East, Bengaluru Urban District, Karnataka, 560103, India",
    "postcode": "560103",
    "status": "pending",
    "createdDate": "Tue Nov 14 2023"
  },
  {
    "id": "1733fa38-b4ef-48bb-9e45-35845075b029",
    "userId": "vivekkumarava1@gmail.com",
    "description": "water pipe breakdown and flowing on road",
    "image": null,
    "latitude": "12.9304371",
    "longitude": "77.6679851",
    "city": "Bengaluru",
    "state": "Karnataka",
    "suburb": "HSR Layout Ward",
    "display_name": "Green Glen Layout, HSR Layout Ward, Bommanahalli Zone, Bengaluru, Bangalore South, Bengaluru Urban District, Karnataka, 530103, India",
    "postcode": "530103",
    "status": "pending",
    "createdDate": "Thu Nov 16 2023"
  },
  {
    "id": "49a09891-ed93-448c-9edb-a221d429af47",
    "userId": "chiragrajus2002@gmail.com",
    "description": "road construction ",
    "image": "1700417622098.jpg",
    "latitude": "13.0154496",
    "longitude": "77.6142848",
    "city": "Bengaluru",
    "state": "Karnataka",
    "suburb": "Kushal Nagar Ward",
    "display_name": "Kushal Nagar, Kushal Nagar Ward, East Zone, Bengaluru, Bangalore North, Bengaluru Urban District, Karnataka, 560084, India",
    "postcode": "560084",
    "status": "pending",
    "createdDate": "Sun Nov 19 2023",
    "closedDate": null
  },
  {
    "id": "0970b2a0-39a0-43b8-87fe-7e4d365555cf",
    "userId": "chiragrajus2002@gmail.com",
    "description": "water problem in ecospace",
    "image": "1700557283175.jpg",
    "latitude": "12.9159831",
    "longitude": "77.6879585",
    "city": "Bengaluru",
    "state": "Karnataka",
    "suburb": "Bellanduru",
    "display_name": "Sunny Brooks, Bellanduru, Mahadevapura Zone, Bengaluru, Bangalore East, Bengaluru Urban District, Karnataka, 560035, India",
    "postcode": "560035",
    "status": "resolved",
    "createdDate": "Tue Nov 21 2023",
    "closedDate": null
  }
]